Stadtname,kurzname,DOMAIN,Open Data Portal,Kontakt Mail,Lat,Lon,modified,sourced-from-m,sourced-from-d,sourced-from-c,sourced-from-b,sourced-from-g,catalog-sources
Rockeskyll,rockeskyll,,,,50.2538769,6.6966757,2014-10-19,0,5,0,0,0,daten.rlp.de
Moers,moers,http://moers.de,http://www.offenedaten.moers.de,offenedaten@moers.de,51.4512826,6.6284302,2014-08-18,0,0,86,6,1,
Chemnitz,chemnitz,http://chemnitz.de,,katja.uhlemann@stadt-chemnitz.de,50.8322608,12.9252977,2014-08-15,0,0,4,0,0,
Ediger-Eller,ediger-eller,,,,50.0974703,7.1536612,2014-10-19,0,6,0,0,0,daten.rlp.de
Pelm,pelm,,,,50.2333991,6.6916188,2014-10-19,0,4,0,0,0,daten.rlp.de
Ney,ney,,,,50.1838773,7.5365562,2014-10-19,0,6,0,0,0,daten.rlp.de
Mainz,mainz,http://mainz.de,,oberbuergermeister@stadt.mainz.de,49.9999952,8.2710237,2014-10-19,0,51,0,0,0,daten.rlp.de
Ellenz-Poltersdorf,ellenz-poltersdorf,,,,50.1148409,7.2333597,2014-10-19,0,4,0,0,0,daten.rlp.de
Holzbach,holzbach,,,,49.95100995,7.5330063508466,2014-10-19,0,4,0,0,0,daten.rlp.de
Morshausen,morshausen,,,,50.1905087,7.440186,2014-10-19,0,3,0,0,0,daten.rlp.de
Vallendar,vallendar,,,,50.4001381,7.6142479,2014-10-19,0,18,0,0,0,daten.rlp.de
Kappel,kappel,,,,54.6641769,9.9317595,2014-10-19,0,2,0,0,0,daten.rlp.de
Dill,dill,,,,49.9163018,7.3460492,2014-10-19,0,4,0,0,0,daten.rlp.de
Hasselbach,hasselbach,,,,51.9268679,8.5189825,2014-10-19,0,4,0,0,0,daten.rlp.de
Birresborn,birresborn,,,,50.1754076,6.625765,2014-10-19,0,9,0,0,0,daten.rlp.de
Klotten,klotten,,,,50.1641546,7.2003745,2014-10-19,0,4,0,0,0,daten.rlp.de
Altweidelbach,altweidelbach,,,,49.9953328,7.5658576,2014-10-19,0,2,0,0,0,daten.rlp.de
Mesenich,mesenich,,,,50.0969947,7.1980171,2014-10-19,0,7,0,0,0,daten.rlp.de
Nieder Kostenz,niederkostenz,,,,49.9432775,7.3662085,2014-10-19,0,2,0,0,0,daten.rlp.de
Karbach,karbach,,,,50.1582811,7.62139121644292,2014-10-19,0,4,0,0,0,daten.rlp.de
Greimersburg,greimersburg,,,,50.1852119,7.1403697,2014-10-19,0,5,0,0,0,daten.rlp.de
Weitersburg,weitersburg,,,,50.412493,7.598594,2014-10-19,0,6,0,0,0,daten.rlp.de
Hausbay,hausbay,,,,50.1066885,7.5594906,2014-10-19,0,1,0,0,0,daten.rlp.de
Hecken,hecken,,,,49.9159912,7.3995056,2014-10-19,0,2,0,0,0,daten.rlp.de
Badenhard,badenhard,,,,50.1231847,7.6325985,2014-10-19,0,2,0,0,0,daten.rlp.de
Erlangen,erlangen,,,,49.5981208,11.0036532,2014-10-19,0,2,0,0,0,govdata.de
Hannover,hannover,http://hannover.de,,Internetredaktion@Hannover-Stadt.de,52.3744779,9.7385532,2014-10-19,0,4,0,0,0,govdata.de
Hamburg,hamburg,http://hamburg.de,http://transparenz.hamburg.de,info-office@hamburg.de,53.5437641,10.0099133,2014-10-17,0,27527,0,29,124,transparenz.hamburg.de
Schwall,schwall,,,,50.1456344,7.5557169,2014-10-19,0,1,0,0,0,daten.rlp.de
Lingerhahn,lingerhahn,,,,50.0938054,7.5646405,2014-10-19,0,4,0,0,0,daten.rlp.de
Biebern,biebern,,,,49.9929338,7.4444775,2014-10-19,0,1,0,0,0,daten.rlp.de
Belgweiler,belgweiler,,,,49.943882,7.4854892,2014-10-19,0,1,0,0,0,daten.rlp.de
Keidelheim,keidelheim,,,,49.9905059,7.4994092,2014-10-19,0,2,0,0,0,daten.rlp.de
Riesweiler,riesweiler,,,,49.959042,7.5569157,2014-10-19,0,6,0,0,0,daten.rlp.de
Gerolstein,gerolstein,,,,50.2234404,6.6618586,2014-10-19,0,42,0,0,0,daten.rlp.de
Tiefenbach,tiefenbach,,,,47.9263493,7.8762368,2014-10-19,0,1,0,0,0,daten.rlp.de
Wiebelsheim,wiebelsheim,,,,50.07835965,7.6417279573954,2014-10-19,0,1,0,0,0,daten.rlp.de
Butjadingen,butjadingen,,,,53.545725,8.35288707942149,2014-10-19,0,1,0,0,0,govdata.de
Rheinböllen,rheinboellen,,,,50.0066163,7.6703839,2014-10-19,0,13,0,0,0,daten.rlp.de
Rohrbach,rohrbach,,,,49.1371992,8.1317278,2014-10-19,0,3,0,0,0,daten.rlp.de
Niederburg,niederburg,,,,50.1177367,7.6951697,2014-10-19,0,2,0,0,0,daten.rlp.de
Schwarzen,schwarzen,,,,49.960972,7.3309408,2014-10-19,0,2,0,0,0,daten.rlp.de
Erbach,erbach,,,,49.62976715,9.00640273118368,2014-10-19,0,3,0,0,0,daten.rlp.de
Belg,belg,,,,49.9835217,7.3100767,2014-10-19,0,1,0,0,0,daten.rlp.de
Berlingen,berlingen,,,,50.2391949,6.7188585,2014-10-19,0,2,0,0,0,daten.rlp.de
Neuerkirch,neuerkirch,,,,50.013787,7.4906544,2014-10-19,0,2,0,0,0,daten.rlp.de
Kastellaun,kastellaun,,,,50.0715547,7.4429326,2014-10-19,0,15,0,0,0,daten.rlp.de
Rostock,rostock,http://rostock.de ,http://opendata-hro.de ,ulrich.kunze@rostock.de,54.0924445,12.1286127,2014-08-26,0,120,1,0,30,opendata-hro.de
Dichtelbach,dichtelbach,,,,50.0080887,7.6985627,2014-10-19,0,2,0,0,0,daten.rlp.de
Beltheim,beltheim,,,,50.1057938,7.461621,2014-10-19,0,9,0,0,0,daten.rlp.de
Borkum,borkum,,,,53.5859383,6.69158131203533,2014-10-19,0,1,0,0,0,govdata.de
Kratzenburg,kratzenburg,,,,50.1872115,7.5539975,2014-10-19,0,3,0,0,0,daten.rlp.de
Gehlweiler,gehlweiler,,,,49.8833,7.46667,2014-10-19,0,1,0,0,0,daten.rlp.de
Horn,horn,,,,53.5540624,10.0889179,2014-10-19,0,3,0,0,0,daten.rlp.de
Bremen,bremen,http://bremen.de,http://daten.bremen.de,info@bremen.de,53.0758099,8.80717,2014-08-26,0,142,53,11,34,daten.bremen.de
Bergenhausen,bergenhausen,,,,50.0241522,7.5722188,2014-10-19,0,1,0,0,0,daten.rlp.de
Bubach,bubach,,,,50.0714346,7.5559132,2014-10-19,0,2,0,0,0,daten.rlp.de
Wahlbach,wahlbach,,,,50.00339685,7.59439056050189,2014-10-19,0,3,0,0,0,daten.rlp.de
Bonn,bonn,http://bonn.de,http://opendata.bonn.de,opendata@bonn.de,50.7358511,7.1006599,2014-10-19,0,73,0,0,0,opendata.bonn.de
Wirfus,wirfus,,,,50.1994929,7.2062714,2014-10-19,0,1,0,0,0,daten.rlp.de
Uhler,uhler,,,,50.0877103,7.4319991,2014-10-19,0,1,0,0,0,daten.rlp.de
Budenbach,budenbach,,,,50.0372318,7.5664613,2014-10-19,0,2,0,0,0,daten.rlp.de
Mastershausen,mastershausen,,,,50.0646438,7.3540303,2014-10-19,0,2,0,0,0,daten.rlp.de
Gräben,graeben,,,,52.2327356,12.4273175,2014-10-19,0,1,0,0,0,govdata.de
Schönborn,schoenborn,,,,51.1465929,13.8668809,2014-10-19,0,2,0,0,0,daten.rlp.de
Gemünden,gemuenden,,,,49.89646945,7.47408812143667,2014-10-19,0,5,0,0,0,daten.rlp.de
Reich,reich,,,,49.99957915,7.42316696551948,2014-10-19,0,4,0,0,0,daten.rlp.de
Laubach,laubach,,,,50.5424486,8.990259,2014-10-19,0,1,0,0,0,daten.rlp.de
Kisselbach,kisselbach,,,,50.0518188,7.6095573,2014-10-19,0,4,0,0,0,daten.rlp.de
Bickenbach,bickenbach,,,,50.1259573,7.5278448,2014-10-19,0,2,0,0,0,daten.rlp.de
Densborn,densborn,,,,50.1270913,6.5997262,2014-10-19,0,3,0,0,0,daten.rlp.de
Briedern,briedern,,,,50.1097607,7.2090159,2014-10-19,0,2,0,0,0,daten.rlp.de
Ulm,ulm,http://ulm.de,http://daten.ulm.de,-,48.398312,9.9910464,2014-08-26,0,76,9,10,18,daten.ulm.de
Niedersohren,niedersohren,,,,49.9291067,7.3321326,2014-10-19,0,5,0,0,0,daten.rlp.de
Kludenbach,kludenbach,,,,49.988149,7.3701959,2014-10-19,0,2,0,0,0,daten.rlp.de
Sargenroth,sargenroth,,,,49.9306516,7.5145154,2014-10-19,0,1,0,0,0,daten.rlp.de
Todenroth,todenroth,,,,49.9761819,7.3557762,2014-10-19,0,1,0,0,0,daten.rlp.de
Köln,koeln,http://stadt-koeln.de ,http://offenedaten-koeln.de,e-government@stadt-koeln.de,50.9374863,6.9580232,2014-10-19,0,128,1,5,19,offenedaten-koeln.de
Mörsdorf,moersdorf,,,,50.1024631,7.3443062,2014-10-19,0,3,0,0,0,daten.rlp.de
Mörschbach,moerschbach,,,,50.0109524,7.6244542,2014-10-19,0,3,0,0,0,daten.rlp.de
Wennigsen (Deister),wennigsen,http://wennigsen.net,http://data.wennigsen.net ,jens@spiwi.de,52.2762744,9.5671846,2014-08-26,0,31,0,0,0,data.wennigsen.de
Berlin,berlin,http://berlin.de,http://daten.berlin.de,Info@Berlin.de,52.5170365,13.3888599,2014-08-26,0,275,0,124,258,daten.berlin.de
Woppenroth,woppenroth,,,,49.874648,7.4132712,2014-10-19,0,4,0,0,0,daten.rlp.de
Lindenschied,lindenschied,,,,49.9019989,7.3929334,2014-10-19,0,2,0,0,0,daten.rlp.de
Norderney,norderney,,,,53.7122885,7.23577947730025,2014-10-19,0,1,0,0,0,govdata.de
Unzenberg,unzenberg,,,,49.9695387,7.4399933,2014-10-19,0,2,0,0,0,daten.rlp.de
Ernst,ernst,,,,50.1438983,7.2242359,2014-10-19,0,6,0,0,0,daten.rlp.de
Schlierschied,schlierschied,,,,49.8752505,7.4418319,2014-10-19,0,1,0,0,0,daten.rlp.de
Juist,juist,,,,53.6784483,6.9956079,2014-10-19,0,1,0,0,0,govdata.de
Riegenroth,riegenroth,,,,50.0567897,7.5813302,2014-10-19,0,5,0,0,0,daten.rlp.de
Buch,buch,,,,50.08079315,7.3877444142684,2014-10-19,0,1,0,0,0,daten.rlp.de
Argenthal,argenthal,,,,49.9750525,7.5953457,2014-10-19,0,1,0,0,0,daten.rlp.de
Beilstein,beilstein,,,,49.0404494,9.3135138,2014-10-19,0,2,0,0,0,daten.rlp.de
Münster,muenster,http://muenster.de,http://www.muenster.de/stadt/katasteramt/geodatenmanagement.html,redaktion@muenster.de,51.9625101,7.6251879,2014-08-26,0,0,1,0,3,
Urbar,urbar,,,,50.1316205,7.7202693,2014-10-19,0,11,0,0,0,daten.rlp.de
Roth,roth,,,,49.2458557,11.0909712,2014-10-19,0,2,0,0,0,daten.rlp.de
Niederkumbd,niederkumbd,,,,50.0129045,7.5361447,2014-10-19,0,4,0,0,0,daten.rlp.de
Benzweiler,benzweiler,,,,50.0213295,7.6039199,2014-10-19,0,4,0,0,0,daten.rlp.de
Elbe,elbe,,,,51.867922,12.5663365,2014-10-19,0,2,0,0,0,govdata.de
Niedert,niedert,,,,50.1262817,7.5435261,2014-10-19,0,1,0,0,0,daten.rlp.de
Hungenroth,hungenroth,,,,50.1430529,7.5997072,2014-10-19,0,2,0,0,0,daten.rlp.de
Hollnich,hollnich,,,,50.0728138,7.4876976,2014-10-19,0,1,0,0,0,daten.rlp.de
Kümbdchen,kuembdchen,,,,49.9924924,7.5093655,2014-10-19,0,1,0,0,0,daten.rlp.de
Zweibrücken,zweibruecken,,,,49.2534991,7.37060801928933,2014-10-19,0,21,0,0,0,daten.rlp.de
Bitzen,bitzen,,,,50.7877063,7.6944206459291,2014-10-19,0,1,0,0,0,daten.rlp.de
Wahlenau,wahlenau,,,,49.9042767,7.249527,2014-10-19,0,1,0,0,0,daten.rlp.de
Niederwerth,niederwerth,,,,50.3955011,7.6096789,2014-10-19,0,6,0,0,0,daten.rlp.de
Reckershausen,reckershausen,,,,49.9832986,7.3999914,2014-10-19,0,1,0,0,0,daten.rlp.de
Neroth,neroth,,,,50.1955111,6.7455001,2014-10-19,0,1,0,0,0,daten.rlp.de
Hohenfels-Essingen,hohenfels-essingen,,,,50.250099,6.7335171,2014-10-19,0,1,0,0,0,daten.rlp.de
Pleizenhausen,pleizenhausen,,,,50.0153006,7.567349,2014-10-19,0,3,0,0,0,daten.rlp.de
Raversbeuren,raversbeuren,,,,49.9568676,7.2264652,2014-10-19,0,2,0,0,0,daten.rlp.de
Beulich,beulich,,,,50.1739614,7.4525489,2014-10-19,0,1,0,0,0,daten.rlp.de
Lahr,lahr,,,,50.1245077,7.3654051,2014-10-19,0,3,0,0,0,daten.rlp.de
Fronhofen,fronhofen,,,,49.99326105,7.46718476934424,2014-10-19,0,2,0,0,0,daten.rlp.de
Salm,salm,,,,50.152507,6.6903569,2014-10-19,0,4,0,0,0,daten.rlp.de
Sohren,sohren,,,,49.930383,7.3100942,2014-10-19,0,5,0,0,0,daten.rlp.de
Niederweiler,niederweiler,,,,49.9095071,7.2833609,2014-10-19,0,3,0,0,0,daten.rlp.de
Damscheid,damscheid,,,,50.1027812,7.6817002,2014-10-19,0,3,0,0,0,daten.rlp.de
Nannhausen,nannhausen,,,,49.9746775,7.4762477,2014-10-19,0,4,0,0,0,daten.rlp.de
Duppach,duppach,,,,50.2610758,6.5650238,2014-10-19,0,1,0,0,0,daten.rlp.de
Perscheid,perscheid,,,,50.0711362,7.6970687,2014-10-19,0,3,0,0,0,daten.rlp.de
Mengerschied,mengerschied,,,,49.9125261,7.5054173,2014-10-19,0,1,0,0,0,daten.rlp.de
Büchenbeuren,buechenbeuren,,,,49.9205571,7.2737714,2014-10-19,0,11,0,0,0,daten.rlp.de
Braunschweig,braunschweig,,,,52.27165645,10.5203138303942,2014-10-19,0,1,0,0,0,govdata.de
Steinbach,steinbach,,,,49.6440769,8.7920561,2014-10-19,0,2,0,0,0,daten.rlp.de
Sankt Goar,sanktgoar,,,,50.15,7.71667,2014-10-19,0,13,0,0,0,daten.rlp.de
Spiekeroog,spiekeroog,,,,53.7666185,7.72555904783462,2014-10-19,0,1,0,0,0,govdata.de
Leiningen,leiningen,,,,50.1320118,7.5709207,2014-10-19,0,4,0,0,0,daten.rlp.de
Nehren,nehren,,,,50.0820718,7.1918541,2014-10-19,0,1,0,0,0,daten.rlp.de
Bruttig-Fankel,bruttig-fankel,,,,50.1290646,7.2303226,2014-10-19,0,4,0,0,0,daten.rlp.de
Kopp,kopp,,,,50.1761468,6.5854323,2014-10-19,0,1,0,0,0,daten.rlp.de
Schnorbach,schnorbach,,,,49.9915908,7.6093306,2014-10-19,0,4,0,0,0,daten.rlp.de
Mermuth,mermuth,,,,50.1701948,7.4831846,2014-10-19,0,1,0,0,0,daten.rlp.de
Oberwesel,oberwesel,,,,50.1060039,7.726558,2014-10-19,0,8,0,0,0,daten.rlp.de
Womrath,womrath,,,,49.9180587,7.4500788,2014-10-19,0,1,0,0,0,daten.rlp.de
Mutterschied,mutterschied,,,,49.9827623,7.5677248,2014-10-19,0,2,0,0,0,daten.rlp.de
Wüschheim,wueschheim,,,,50.01369395,7.42402402670082,2014-10-19,0,2,0,0,0,daten.rlp.de
Ravengiersburg,ravengiersburg,,,,49.9356539,7.4779401,2014-10-19,0,1,0,0,0,daten.rlp.de
Metzenhausen,metzenhausen,,,,49.9708864,7.3614793,2014-10-19,0,1,0,0,0,daten.rlp.de
Frankfurt am Main,frankfurt,http://frankfurt.de,http://offenedaten.frankfurt.de,onlinebuero@stadt-frankfurt.de,50.12134215,8.661951186,2014-10-19,1,26,0,0,1,offenedaten.frankfurt.de
Thörlingen,thoerlingen,,,,50.1346087,7.5327796,2014-10-19,0,1,0,0,0,daten.rlp.de
Braunshorn,braunshorn,,,,50.0914927,7.5170903,2014-10-19,0,5,0,0,0,daten.rlp.de
Wuppertal,wuppertal,http://wuppertal.de,https://www.wuppertal.de/rathaus-buergerservice/offene_daten/index.php,stadtverwaltung@stadt.wuppertal.de,51.264018,7.1780374,2014-10-14,0,2,0,0,0,wuppertal.de
Pfalzfeld,pfalzfeld,,,,50.1127052,7.5789176,2014-10-19,0,5,0,0,0,daten.rlp.de
Dörth,doerth,,,,50.148617,7.5905614,2014-10-19,0,4,0,0,0,daten.rlp.de
Bremm,bremm,,,,50.1,7.11667,2014-10-19,0,5,0,0,0,daten.rlp.de
Halsenbach,halsenbach,,,,50.1751197,7.5522809,2014-10-19,0,5,0,0,0,daten.rlp.de
Troisdorf,troisdorf,,,,50.8153071,7.1593271,2014-10-19,0,2,0,0,0,govdata.de
Dommershausen,dommershausen,,,,50.1437492,7.4004505,2014-10-19,0,3,0,0,0,daten.rlp.de
Valwig,valwig,,,,50.1426439,7.2106313,2014-10-19,0,3,0,0,0,daten.rlp.de
Wangerooge,wangerooge,,,,53.7834917,7.93518076593744,2014-10-19,0,1,0,0,0,govdata.de
Michelbach,michelbach,,,,49.9938402,6.3520577,2014-10-19,0,1,0,0,0,daten.rlp.de
Baltrum,baltrum,,,,53.72703795,7.39548387505676,2014-10-19,0,1,0,0,0,govdata.de
Mürlenbach,muerlenbach,,,,50.1501448,6.6011404,2014-10-19,0,5,0,0,0,daten.rlp.de
Bärenbach,baerenbach,,,,49.7479994,7.4413927,2014-10-19,0,1,0,0,0,daten.rlp.de
Klosterkumbd,klosterkumbd,,,,50.027957,7.5342709,2014-10-19,0,4,0,0,0,daten.rlp.de
Birkheim,birkheim,,,,50.1170671,7.622151,2014-10-19,0,1,0,0,0,daten.rlp.de
Heinzenbach,heinzenbach,,,,49.9728445,7.4185567,2014-10-19,0,3,0,0,0,daten.rlp.de
Gödenroth,goedenroth,,,,50.0875278,7.4896245,2014-10-19,0,2,0,0,0,daten.rlp.de
Stuttgart,stuttgart,http://stuttgart.de ,,post@stuttgart.de ,48.7763511,9.1829049,2014-10-15,17,0,141,9,116,
Norath,norath,,,,50.1245208,7.5792317,2014-10-19,0,2,0,0,0,daten.rlp.de
Kalenborn-Scheuern,kalenborn-scheuern,,,,50.2580315,6.5972702,2014-10-19,0,2,0,0,0,daten.rlp.de
Faid,faid,,,,50.1452978,7.1197334,2014-10-19,0,6,0,0,0,daten.rlp.de
München,muenchen,http://muenchen.de,http://www.muenchen.de/opendata,info@portalmuenchen.de,48.1372719,11.5754815,2014-08-15,0,0,0,6,10,
Dickenschied,dickenschied,,,,49.9003841,7.4180863,2014-10-19,0,3,0,0,0,daten.rlp.de
Ohlweiler,ohlweiler,,,,49.9650328,7.4967484,2014-10-19,0,1,0,0,0,daten.rlp.de
Laufersweiler,laufersweiler,,,,49.8966442,7.3031877,2014-10-19,0,3,0,0,0,daten.rlp.de
Maisborn,maisborn,,,,50.0824955,7.5813861,2014-10-19,0,3,0,0,0,daten.rlp.de
Laudert,laudert,,,,50.0775557,7.6032905,2014-10-19,0,4,0,0,0,daten.rlp.de
Boppard,boppard,,,,50.228893,7.6000539,2014-10-19,0,33,0,0,0,daten.rlp.de
Lautzenhausen,lautzenhausen,,,,49.9373167,7.2730307,2014-10-19,0,5,0,0,0,daten.rlp.de
Emmelshausen,emmelshausen,,,,50.1564357,7.5545807,2014-10-19,0,31,0,0,0,daten.rlp.de
Alterkülz,alterkuelz,,,,50.0315436,7.4657635,2014-10-19,0,1,0,0,0,daten.rlp.de
